,Sub Div Code,Dtr No,DTR Name,Feeder No,Latitude,Longitude,Total Capacity_kVA,Load,Value
0,133,18,018-paikan,5,24.9823071,92.5210001,100.0,56.39,1
1,133,44,044-KHELMA,2,24.9536851,92.4990678,63.0,58.06,1
2,133,46,046-CRAIGPARK,5,25.008613,92.5257821,63.0,48.92,1
3,133,50,050-9BPL II,2,24.999775,92.4433517,25.0,9.28,1
4,133,54,054-BPR 1,9,24.9079803,92.6735551,63.0,26.6,1
5,133,55,055-BPR1,9,24.9283744,92.6523529,63.0,60.660000000000004,1
6,133,57,057-CHANDPUR III,9,24.9056361,92.6751281,100.0,34.8,1
7,133,102,Kalain Bazar (Near FRU),2,24.9678249,92.5729239,250.0,401.32,-1
8,133,103,Kalain Bazar (Near Gas Agency),1,24.965162,92.5757561,100.0,76.64,1
9,133,105,"Kalain (Near KESD, APDCL)",2,24.9686385,92.5690119,250.0,446.58,-1
10,133,106,Kalain (Near PHE),2,24.9664166,92.5686026,100.0,113.98,-1
11,133,108,Kalain Brahmangram (Near Jio),2,24.9691765,92.5667413,250.0,436.25,-1
12,133,109,109- Kalain (Tarapur- College Road),2,24.9703105,92.563359,63.0,117.28,-1
13,133,110,110-KAKRAKHAL,2,24.976445,92.5651117,63.0,44.85,1
14,133,111,111-BHAIRABPUR-V,2,24.9582566,92.5465243,100.0,75.77,1
15,133,112,112-BHAIRABPUR MASJID,2,24.964695,92.5581733,16.0,19.03,-1
16,133,114,114-NATANPUR,2,24.9578008,92.5632724,100.0,178.13,-1
17,133,115,Boroitoli (Near Masjid),2,24.9470533,92.5667217,250.0,163.48,1
18,133,117,117-NATANPUR,2,24.948529,92.5645731,16.0,11.95,1
19,133,118,118-DIGABUR BASTI,2,24.9489022,92.5536784,100.0,46.76,1
20,133,120,120-BHAIRABPUR-V (NEAR KAKRAKHAL),2,24.9669217,92.5540773,100.0,115.63,-1
21,133,121,121-BHAIRABPUR-III HILUATILLA,2,24.93532,92.539665,16.0,16.37,-1
22,133,125,125-SALIMABAD,2,24.9386353,92.527886,25.0,47.99,-1
23,133,126,126-KAKRAKHAL,2,24.9723066,92.5564977,250.0,195.99,1
24,133,128,128-KHELMA-VI,2,24.946875,92.47223,25.0,33.77,-1
25,133,130,130-KHELMA VIII,2,24.9775874,92.5293892,250.0,309.85,-1
26,133,132,132-BHUBANESWARNAGAR,9,24.9292817,92.6465267,250.0,157.98,1
27,133,133,133-PAIKAN 25 kVA,5,24.9788613,92.5263126,25.0,22.11,1
28,133,134,134-TARAPUR ULLAKHAL,2,24.9739033,92.5473926,100.0,57.339999999999996,1
29,133,135,Paikan (Near Masjid),2,24.9774788,92.5120053,100.0,96.88,1
30,133,139,139-KOROCHURA 63KVA,2,24.9758216,92.5355262,63.0,93.43,-1
31,133,140,140-KHELMA 16KV,2,24.9730496,92.5161298,63.0,48.03,1
32,133,141,141-KHELMA-III VII,2,24.9605042,92.501977,16.0,17.05,-1
33,133,142,142-KHLMA,2,24.9785554,92.5192671,250.0,270.73,-1
34,133,144,144-KHELMA II,2,24.9573254,92.4979798,16.0,59.93,-1
35,133,145,145-SADIRKHAL BAZAR,2,24.9518244,92.4867608,63.0,48.45,1
36,133,146,146-JALALPUR KUSIERKUL,2,24.992735,92.457385,100.0,107.67,-1
37,133,147,147-TARAPUR,2,24.9917083,92.4432209,16.0,21.009999999999998,-1
38,133,148,148-LEVERPUTA,2,24.945659,92.4661563,16.0,18.18,-1
39,133,150,150-dudpur-63-kva,7,24.8731221,92.6737717,100.0,168.53,-1
40,133,151,151-SARASPUR,2,24.975134,92.4996664,100.0,55.11,1
41,133,153,153-KHELMA,2,24.9833766,92.5292307,100.0,78.34,1
42,133,155,155-RAJPUR 63 KVA,2,24.9889367,92.4918183,100.0,99.46,1
43,133,156,156-TALKARGRANT,2,24.9884867,92.4744267,100.0,111.89,-1
44,133,157,157-MAHADEVPUR RGGVY,2,24.9730315,92.4644123,25.0,15.96,1
45,133,159,Paikan,2,24.9794743,92.5162463,100.0,62.36,1
46,133,160,160-PEERNAGAR,2,24.9745778,92.4590091,100.0,134.79,-1
47,133,162,162-Mahadevpur,2,24.958411,92.4790336,25.0,36.6,-1
48,133,164,Bhairabpur Part-I,2,24.9772193,92.5286137,63.0,61.73,1
49,133,165,165-Bhairabpur-i(25kva RGGVY),2,24.9651004,92.5453318,63.0,37.94,1
50,133,168,168-TARAPUR,2,24.9929052,92.4557199,100.0,112.62,-1
51,133,169,169-SOUTH TARAPUR,2,24.9911767,92.4508667,25.0,32.74,-1
52,133,170,170-BISWAMBARPUR,2,24.999395,92.4441,63.0,40.14,1
53,133,171,171-16-Digabar TE,2,24.9491235,92.5537207,16.0,22.419999999999998,-1
54,133,176,176-NIJ JALALPUR II,2,24.9690184,92.4455317,100.0,69.46000000000001,1
55,133,177,177-NIJ JALALPUR I,2,24.9688283,92.4418817,63.0,51.13,1
56,133,178,178-KHELMA JALALPUR,2,24.9533152,92.4891377,25.0,8.59,1
57,133,180,180-KARABALAGRANT 16KVA,2,25.017396,92.4394882,16.0,14.469999999999999,1
58,133,181,181-GUMRAHGRANT 16KVA,2,24.9997368,92.438912,16.0,47.95,-1
59,133,187,187-BHAIRABPUR-V,2,24.9596713,92.5561959,63.0,73.19,-1
60,133,190,190-BHAIRABPUR-I,2,24.96872,92.4374547,16.0,25.73,-1
61,133,202,202-CHALIGRAM,5,24.9854924,92.5705834,16.0,16.169999999999998,-1
62,133,203,203-DHUMKAR CHALIRGRAM,5,24.9753902,92.5707701,100.0,67.11,1
63,133,204,204-CHOLIGRAM 63KV,5,24.9812422,92.5660439,63.0,49.14,1
64,133,205,205-GOBINDOKUPA,5,24.9976379,92.5256959,25.0,38.28,-1
65,133,206,206-MEZENTA A,5,24.9969822,92.5761275,25.0,42.86,-1
66,133,208,208-soligram 63-kva,5,24.9753915,92.5700057,100.0,102.17999999999999,-1
67,133,210,210-majanta-te-16-kva,5,24.9978367,92.5670533,16.0,11.77,1
68,133,212,212-mougram 16-kva,5,24.98784,92.5492533,16.0,24.01,-1
69,133,213,213-63-KVA,9,24.948225,92.6438217,63.0,62.14,1
70,133,214,214-buranga-2--100 kVA,9,24.9509467,92.6202567,100.0,154.95,-1
71,133,215,215-bELTILLA-16-kva,5,24.9953417,92.4941183,16.0,16.0,1
72,133,220,220-GUMRAH BAZAR,2,24.9535133,92.5436405,250.0,108.92999999999999,1
73,133,222,Gumrah Kandigram (Near Sitaram Mandir),2,24.9717386,92.5116168,100.0,86.46,1
74,133,225,225-DIGORKHAL,5,24.9899721,92.517014,25.0,21.19,1
75,133,229,229-RAJESHWARPUR II,5,24.9917735,92.4835377,16.0,20.69,-1
76,133,230,230-megenta te 16-kva,5,24.9967802,92.5714094,16.0,17.8,-1
77,133,231,231-kalainchora-100-kva,5,25.0121901,92.5048747,25.0,10.33,1
78,133,233,233-SPPS65 LAKHICHERA,5,25.0232498,92.4868399,16.0,29.0,-1
79,133,236,236-100 KVA KURKURI BHANGARPAR,1,24.9590683,92.5890967,100.0,85.49,1
80,133,241,241-BATULMARAGRANT J.T.E,5,24.9997139,92.4609219,25.0,32.69,-1
81,133,244,244-DUMKAR- SP-60 100 kVA,2,24.9677633,92.576205,100.0,108.58,-1
82,133,245,245-JALALPUR BAZAR,5,25.0009083,92.4550533,250.0,219.48,1
83,133,246,246-63-KVA,5,24.9869241,92.5360573,63.0,27.34,1
84,133,247,Punaparagrant mikirpunji1,5,24.9925378,92.5492918,16.0,8.07,1
85,133,249,Gonirgram-iii,7,24.8481474,92.6604985,25.0,18.95,1
86,133,257,Kalinagar-1,7,24.8709933,92.6136883,63.0,44.61,1
87,133,258,Gonigram-iii,7,24.8565724,92.6800705,25.0,43.31,-1
88,133,260,Gonigram-iv,7,24.8692375,92.6950907,16.0,5.89,1
89,133,263,Katirail T.E,8,24.9238133,92.5935917,25.0,3.0,1
90,133,264,Craigpark -4 NO Basti,5,25.013576,92.5176831,25.0,7.4,1
91,133,267,Tarinipur-iii,7,24.8717246,92.6329332,25.0,10.46,1
92,133,303,303-Menum Mikirpunji 25 kVA,5,25.000872,92.5033323,25.0,42.78,-1
93,133,306,306-KURKURI/BHANGARPAR,1,24.9568633,92.595415,100.0,56.12,1
94,133,307,Monipur-1 16 kVA,1,24.9542333,92.599904,16.0,40.24,-1
95,133,308,Sundhura near Kalain Bagan down,3,24.980374,92.5768837,100.0,111.14,-1
96,133,311,311-Behara Pt V (Kalacheri) (Dindayal) DT- 1,6,24.9108265,92.6196087,63.0,29.76,1
97,133,324,324-Chandinagar 25 kva(Dindayal),8,24.9182855,92.4990599,25.0,16.22,1
98,133,327,327-Rongpur 25 kva(Dindayal),2,24.9793367,92.4243933,25.0,10.0,1
99,133,328,328-Gobindapur-I 25 kva(Dindayal),6,24.9158295,92.6124281,25.0,11.52,1
100,133,331,331- Madar Pur (Dindayal) DT-1,8,24.8749171,92.5227254,25.0,7.890000000000001,1
101,133,333,333-Kalainchera-63- KVA,5,25.0121931,92.5071962,100.0,88.82,1
102,133,335,335-VITORKUL-16-KVA,5,24.991835,92.5424317,16.0,14.16,1
103,133,341,341-BANGARPAR BAZAR,9,24.9221483,92.6591983,100.0,124.02,-1
104,133,342,342-BHANGARPAR IV,9,24.9221694,92.6618018,100.0,69.69,1
105,133,347,347-Chandpur V 25 kva(Dindayal),9,24.8802459,92.6890964,25.0,21.3,1
106,133,350,350-Sonapur,9,24.8843978,92.6899701,63.0,63.03,-1
107,133,352,352-BIAKIMPUNJI-25-KVA,5,25.0206801,92.4596856,16.0,15.02,1
108,133,353,353-BOLASHARGRANT-16-.KVA,5,25.0046169,92.4539044,63.0,16.2,1
109,133,354,354-BISWAMBERPUR,5,25.0214017,92.4730373,100.0,60.31,1
110,133,357,357-10 KVA,5,25.0167264,92.491598,10.0,3.98,1
111,133,358,358-BALESWARGRANT,5,25.0063696,92.4527822,16.0,25.92,-1
112,133,359,359-BALESWARGRANT,5,25.0232986,92.4914376,16.0,10.9,1
113,133,361,361-CHANDPUR II,9,24.8894184,92.6716817,16.0,53.88,-1
114,133,362,362- GOBINDAKUPA,5,24.991042,92.5210683,63.0,121.06,-1
115,133,364,364-CHANDPUR,9,24.90004,92.663215,16.0,15.94,1
116,133,368,368-CHANDPUR III (BELAKONA),9,24.899173,92.6780843,63.0,51.46,1
117,133,369,369-CHANDPUR III,9,24.8925486,92.6711184,63.0,60.47,1
118,133,370,370-BHANGARPAR II,9,24.91913,92.6587917,100.0,162.0,-1
119,133,374,374-RANGHAR III,9,24.9076133,92.6750183,25.0,18.07,1
120,133,375,375-BHANGARPAR IV,9,24.9116679,92.6710812,63.0,77.16,-1
121,133,377,377-BHEWARPAR,9,24.9114717,92.668865,63.0,32.31,1
122,133,378,Bhangarpar IV (Near Police Outpost),9,24.9159429,92.6652852,63.0,74.47,-1
123,133,379,379- Digorkhal Bazar,5,24.9975538,92.5164057,250.0,167.37,1
124,133,384,384-CHANDPUR,1,24.9937032,92.5197963,25.0,31.64,-1
125,133,385,385-SONAPUR,9,24.9055355,92.6677673,100.0,21.06,1
126,133,386,386- KAYAJANI BASTI,5,24.9863721,92.5438292,25.0,14.63,1
127,133,387,387-16-SEWTI,5,25.0135693,92.5099502,16.0,22.26,-1
128,133,388,388-CHANDPUR II,9,24.891385,92.6665767,63.0,43.98,1
129,133,390,390-BHANGARPAR II,9,24.9150517,92.6500117,63.0,24.31,1
130,133,391,391-tingourI,9,24.939965,92.63556,63.0,54.01,1
131,133,392,392-SEWTI IV,9,24.9167167,92.6487085,63.0,52.37,1
132,133,394,394-16 KVA BARJATRAPUR,9,24.8945492,92.69898,25.0,32.78,-1
133,133,396,396-HIYERBOND-II,9,24.9057083,92.6912517,63.0,62.87,1
134,133,397,397-CHANDPUR III ( NEAR PETROL PUMP,9,24.9023721,92.6852968,63.0,96.2,-1
135,133,398,398-CHANDPUR IV- AKILTIKRI,9,24.8996317,92.69115,100.0,128.3,-1
136,133,406,406-Kalain TE.,3,24.87701,92.525155,25.0,7.09,1
137,133,411,411- Tarinipur I(Dindayal) DT-2,7,24.8797644,92.6306206,25.0,12.780000000000001,1
138,133,412,412- Karai Kandi I (Pahar Tilla) (Dindayal) DT- 2,8,24.8998967,92.5346967,25.0,19.47,1
139,133,415,415- Behara Pt VI (Goralalpar) (Dindayal),6,24.9216062,92.6127752,25.0,12.66,1
140,133,416,416 Mahadevpur II(Dindayal 234),2,24.9698104,92.4664566,25.0,15.66,1
141,133,417,SALIGRAM( BOLoRAM)25KVA  ,5,24.9868137,92.5676464,25.0,6.46,1
142,133,418,418- Sewti Pt I (Santi Pt I) (Monkey Tillah) (Dindayal),9,24.9392267,92.6616033,25.0,16.65,1
143,133,420,420-RAJPUR-I,2,24.982069,92.5097038,25.0,18.91,1
144,133,425,425-Mahadevpur,2,24.9597646,92.4814827,25.0,27.7,-1
145,133,434,SALIGRAM (SORARPAR)BOLO-NANKI,5,24.9882245,92.5672927,25.0,15.28,1
146,133,437,437 Talkargrant (Dinndayal),2,24.9881,92.4820433,25.0,7.08,1
147,133,439,439 Talkargrant Mahadebpur (Dindayal),2,24.9908449,92.4637696,25.0,7.5,1
148,133,441,CHANDPUR-III,9,24.8879282,92.6755052,25.0,2.9,1
149,133,445,445- Jagadishpur III (Bargoal) (Dindayal),8,24.9082989,92.5677021,16.0,4.62,1
150,133,447,447 Niz- Jalalpur III,2,24.9860917,92.5263133,63.0,41.24,1
151,133,448,448 Talkargrant (Dindayal),5,24.9970708,92.4813319,25.0,1.58,1
152,133,450,450- Karai Kandi I (Pahar Tilla) (Dindayal) DT- 1,8,24.894895,92.534905,25.0,22.81,1
153,133,452,VitorgongapurPt-i 25KVA,201,24.9435914,92.7130857,25.0,25.27,-1
154,133,453,KHELMA PT-II,2,25.0205482,92.4800435,25.0,12.86,1
155,133,455,Mahadevpur Pt-I (Sriguru Nagar)  25 KVA,2,24.9940235,92.4648439,25.0,13.64,1
156,133,457,457-Gobindapur-I (Purba Gobingapur) (Dindayal),6,24.9032183,92.6291663,25.0,7.0,1
157,133,461,461-TALKARGRANT (DINDAYAL),2,24.9882,92.4782,25.0,11.14,1
158,133,462,462- MANIPUR-I (DINDAYAL),1,24.9542733,92.5999867,25.0,0.8999999999999999,1
159,133,468,468- Gumra Grant (Gumrah Gaon) (Dindayal),2,25.00333,92.4379412,25.0,5.5,1
160,133,470,Saidpur Pt I(nadirpar)  25KVA,8,24.9535454,92.4977021,63.0,22.13,1
161,133,471,Biswambarpur(Kushiarkul) 25KVA,2,24.9887397,92.4497036,25.0,36.28,-1
162,133,501,501-KATIRAIL TE,6,24.8950853,92.5848685,63.0,68.42999999999999,-1
163,133,503,503-SIDDIPUR,6,24.8791867,92.5889313,63.0,98.43,-1
164,133,504,504-KATIRAIL,6,24.9071669,92.5906105,250.0,93.34,1
165,133,505,505-SIDDIPUR,6,24.8799917,92.592355,250.0,144.22,1
166,133,506,506-KATIRAIL,6,24.8813983,92.5869067,250.0,232.0,1
167,133,507,507-NOON NAGAR,6,24.8948477,92.5933483,250.0,105.55,1
168,133,508,508-TIKARPARA,6,24.895545,92.5906833,250.0,298.12,-1
169,133,509,509-SIDDESWAR,6,24.9204385,92.6071119,25.0,14.049999999999999,1
170,133,512,512-BEHARA VI (TINTIKRI),6,24.9172384,92.6116583,63.0,97.89,-1
171,133,513,513-KATIRAIL TE,6,24.9246221,92.5872981,100.0,106.46,-1
172,133,514,514-NOONNAGAR,6,24.8898925,92.5946527,25.0,44.92,-1
173,133,515,515-KATIRAIL,6,24.956905,92.5836833,100.0,93.8,1
174,133,516,516-MODUA,6,24.956765,92.5836719,100.0,93.28,1
175,133,517,517-NOONNAGAR,6,24.9308471,92.5967586,100.0,65.42,1
176,133,519,519-HILARA-,6,24.9349393,92.595152,100.0,90.31,1
177,133,520,520-CHOUDHURY PARA,6,24.922148,92.6008619,25.0,31.15,-1
178,133,521,521-Hilara pamp,6,24.9252267,92.5910217,63.0,17.38,1
179,133,522,522-Bihara-V Kolachoripar,6,24.9103985,92.6333258,25.0,10.62,1
180,133,523,523-CHELLAH,6,24.9054262,92.6318967,63.0,47.31,1
181,133,524,524-LAKHIPUR III,6,24.9470206,92.588204,250.0,75.08,1
182,133,525,525-CHABAGAN,6,24.8790639,92.5832123,250.0,313.79,-1
183,133,526,526-BOROITOLI-V SP-44,6,24.9285067,92.5863767,25.0,54.29,-1
184,133,527,527-MOHANPUR-I,6,24.9110925,92.6023822,25.0,18.39,1
185,133,529,529-HILARA TE,6,24.9351707,92.5947399,16.0,24.06,-1
186,133,530,530-LAKHIPUR-I,6,24.9609735,92.5743585,16.0,35.19,-1
187,133,531,531-HILARA PUMP,6,24.9403662,92.5909925,100.0,44.57,1
188,133,601,601-siddeshwar-63-kva,8,24.8770333,92.5772583,63.0,79.14,-1
189,133,602,602-kathigorha-63-kva,8,24.8820036,92.5660643,100.0,147.55,-1
190,133,603,603-charagibazar-250-kva,8,24.8812017,92.5551839,250.0,144.36,1
191,133,604,604-kathigorha-63-kva,8,24.8851333,92.5567267,63.0,41.74,1
192,133,605,605-KATIGORAH OLD 250,8,24.8776867,92.5687733,250.0,346.44,-1
193,133,607,607-JAGADISHPUR 100,8,24.888185,92.5567798,100.0,123.35,-1
194,133,609,609-haritakar-16-kva,8,24.8880117,92.5122867,16.0,22.99,-1
195,133,610,610-LATHIMARA-100-KVA,8,24.8811583,92.5552333,250.0,161.709,1
196,133,611,Haritakar,8,24.883685,92.51593,25.0,14.19,1
197,133,612,612-LATHIMARA-16-KVA,8,24.8750363,92.5431181,16.0,33.9,-1
198,133,614,614-KATIGORAH II 100,8,24.9087452,92.5796577,100.0,58.14,1
199,133,615,615-KATHIGORHA-25-KVA-,8,24.9051417,92.577825,25.0,51.08,-1
200,133,616,616-KATHIGORHA-16-KVA,8,24.9072967,92.5788033,63.0,24.68,1
201,133,619,619-niz kathigorha-16-kva,8,24.90034,92.5776933,16.0,37.55,-1
202,133,623,623-JAGADISHPUR V 100,8,24.8987683,92.5589963,100.0,72.06,1
203,133,624,624-JAGADISHPUR IV 63,8,24.8918896,92.5681629,63.0,99.92,-1
204,133,626,626-JAGADISHPUR IV 63,8,24.8974796,92.5680284,63.0,68.67999999999999,-1
205,133,629,629-LATHIMARA-100-KVA,8,24.8791514,92.5452838,100.0,111.31,-1
206,133,631,631-KATHIGORHA-16-KVA,8,24.9000817,92.5736367,16.0,24.73,-1
207,133,632,632-talitakar-63-kva,8,24.8835946,92.5251355,63.0,157.25,-1
208,133,634,634-CHANDINAGAR-16--KVA,8,24.9244727,92.4971552,16.0,11.69,1
209,133,635,635-JOGODISHPUR-16-KVA,8,24.9099724,92.5599661,16.0,21.22,-1
210,133,637,637-CHANDINAGAR-1-16-KVA,8,24.9284735,92.5002039,16.0,7.59,1
211,133,640,640-HARINAGAR-63-KVA,8,24.8929134,92.4987646,63.0,45.03,1
212,133,642,642-HORINAGAR II,8,24.8816267,92.5028967,63.0,13.26,1
213,133,646,646-HARINAGAR II,8,24.88314,92.5033848,100.0,35.38,1
214,133,1003,Chandpur-I (Nokyary) (Near PHE),7,24.8881058,92.6517365,25.0,48.39,-1
215,133,1005,Chandpur-I ( Near Masjid),7,24.8866357,92.656414,25.0,24.82,1
216,133,1009,1009- Dudhpur Lamargram (Dindayal),7,24.8805672,92.6561599,25.0,55.21,-1
217,133,1010,1010-Lakhipur-III (Dindayal) DT-1,6,24.9022079,92.6348132,25.0,16.23,1
218,133,1014,1014-Khelma III (Dindayal),2,24.9632297,92.5064162,63.0,22.56,1
219,133,1015,1015-Sarajpur (Daspara) (Dindayal),2,24.9656625,92.4871535,63.0,35.87,1
220,133,1016,1016-Paikan (Ujangram) (Dindayal),5,24.983425,92.5234193,25.0,11.76,1
221,133,1017,1017- Craigpark Mikir Punjee (Shivtilla) (Dindayal),5,25.0056752,92.5290112,25.0,11.78,1
222,133,1025,1025-Saidpur II (Kalibari) (Dindayal),8,24.9330799,92.4918628,25.0,13.68,1
223,133,1028,1028- Baraitoli Pt IV (Dindayal) DT-1,2,24.92543,92.5728383,100.0,2.49,1
224,133,1029,1029- Baraitoli Pt IV (Dindayal) DT-2,2,24.9230216,92.5676126,25.0,12.0,1
225,133,1032,1032- Mahadevpur (Talkargrant) (Dindayal),2,24.9889745,92.4697754,25.0,9.82,1
226,133,1033,1033- Mahanpur (Near Samsul House) DT- 2,6,24.9120345,92.6110038,25.0,33.89,-1
227,133,1034,1034-Bhairabpur II (16 kva),2,24.9371434,92.5374317,16.0,28.47,-1
228,133,1037,1037- Sewti Pt IV (Dindayal),9,24.9076933,92.6451983,63.0,23.58,1
229,133,1038,1038- Bhairabpr I (Near M E School) (SOUBHAGYA),2,24.9555573,92.5450503,100.0,14.12,1
230,133,1042,1042- Dudpur II (SANJOG),7,24.8600232,92.6782089,25.0,7.35,1
231,133,1045,1045- Sraspur (SANJOG),2,24.9638836,92.4855904,25.0,40.519999999999996,-1
232,133,1047,1047- Lahamali (SANJOG) 25,8,24.8852686,92.5550845,25.0,58.42,-1
233,133,1048,1048- Mahadevpur III,2,24.9576767,92.4696317,25.0,25.48,-1
234,133,1049,1049- Bhangarpar III & IV,9,24.91478,92.660075,25.0,22.58,1
235,133,1057,1057- Buribail III,7,24.870244,92.723572,25.0,23.86,1
236,133,1059,1059- Khelma II (SANJOG),2,24.9638576,92.4897577,25.0,12.29,1
237,133,2009,Lakhipur III (Near Manipuri Mandir),6,24.9432283,92.5897883,25.0,25.68,-1
238,133,2010,Lakhipur II (Near Gas Agency),6,24.9518193,92.5868498,25.0,12.6,1
239,133,2013,Barailtoli (Hilarkandi) (Near Itt Bhatta),6,24.9480118,92.5799013,63.0,21.0,1
240,133,2014,Mohanpur II (Near ONGC),6,24.8912615,92.5928227,25.0,8.33,1
241,133,2015,Mohanpur II (Khanjalla),6,24.8947567,92.586095,25.0,55.17,-1
242,133,2016,Khelma-IV(DDUGJY),2,24.9217317,92.601031,63.0,15.49,1
243,133,2017,Chandpur II (Near Natun LP School),9,24.8890067,92.6663333,25.0,8.43,1
244,133,2034,Tikarbosti(NearIOC)25KVA,201,24.9449015,92.7173748,25.0,27.47,-1
245,133,2039,SONAPUR III(MOROITOL)63KVA,201,24.9321317,92.6898139,63.0,27.81,1
246,133,2041,SonapurPTI(Kunagram)25KVA,201,24.9371133,92.6760321,25.0,38.65,-1
247,133,2042,SunapurPT-i(NearSchool)25KVA,201,24.9368481,92.6729154,25.0,24.51,1
248,133,2045,Sonapur PT I(Dispur) 100 kva,201,24.9338483,92.6674865,100.0,68.78,1
249,133,2068,Bhangarpar IV,9,24.9190483,92.66124,63.0,33.74,1
250,133,2072,Khelma-III(Near Kali Mandir),2,24.9609532,92.5036777,25.0,20.15,1
251,133,2073,Rajpur Talkar grant 2,2,24.9887754,92.4840191,25.0,19.11,1
252,133,2077,HARINAGAR PT II (NEW 25KVA),8,24.890085,92.497935,25.0,13.0,1
253,133,2078,25KVA KATIGORAH PT II NEAR SUKRITIPUR STATION,8,24.8978267,92.5732533,25.0,9.9,1
254,133,2079,Bhairabpur Pt II New 16 kVA,2,24.9331093,92.5384153,16.0,15.0,1
255,133,2081,BHAIRABPUR-II(SALIMABAD),2,24.9391749,92.532011,16.0,25.0,-1
256,133,2082,HARINAGAR PT II NEAR MASJID 25KVA,8,24.88349,92.4976567,25.0,63.4,-1
257,133,2084,CHANDINAGAR PT II NEAR LP SCHOOL 25,8,24.9218404,92.4947131,25.0,31.36,-1
258,133,2087,NANDIRPAR NEAR BSF CAMP,2,24.9540415,92.4975261,63.0,9.33,1
259,133,2089,KUNAPARAGRANT,5,24.9901817,92.54935,16.0,12.26,1
260,133,2090,Lakhipur PT I (Near Baliuna),6,24.959521,92.5740704,25.0,6.9,1
261,133,2091,Lakhipur PT I (Near Forest Gate),6,24.962372,92.578251,100.0,41.82,1
262,133,2092,LEVERPUTA II,2,24.9554018,92.4854721,16.0,38.01,-1
263,133,2099,LEVERPUTA I,2,24.9460569,92.4629548,63.0,50.06,1
264,133,2103,JAGADISHPUR V,8,24.9026655,92.5598498,25.0,36.74,-1
265,133,2105,LEVERPUTA II,2,24.9482087,92.476852,25.0,11.15,1
266,133,2106,JAGADISHPUR V,8,24.893199,92.5580641,25.0,42.36,-1
267,133,2108,RONGHAR I,9,24.9227016,92.6727785,25.0,17.68,1
268,133,2109,JALALPUR ( DONARPAR ),2,24.9753592,92.4544688,25.0,14.27,1
269,133,2110,JALALPUR ( DONARPAR ),2,24.9768917,92.4521483,63.0,16.72,1
270,133,2111,Natanpur ongc,2,24.9953112,92.4313496,25.0,8.82,1
271,133,2113,DIGABOR GRANT,2,24.9454595,92.5485232,25.0,29.91,-1
272,133,2119,khelma part ii,2,24.963094,92.4865513,25.0,4.49,1
273,133,2120,khelma part ii,2,24.9607826,92.4857204,25.0,4.41,1
274,133,2121,khrelma part ii,2,24.9576266,92.4866441,25.0,14.25,1
275,133,2122,GOALNAGAR,2,24.9591752,92.4823453,25.0,11.78,1
276,133,2138,MAHADEVPUR III,2,24.9622032,92.471702,63.0,27.97,1
277,133,2140,barjatrapur(near public school),9,24.9024318,92.6922736,63.0,33.7,1
278,133,2141,barjatrapur bus stand,9,24.9030752,92.7054417,250.0,79.56,1
279,133,2142,NATANPUR  CHOUMATHA,2,24.9994617,92.4271217,25.0,7.43,1
280,133,2144,GOKULNAGAR,5,25.0098,92.5022417,25.0,13.719999999999999,1
281,133,2185,MOHANPUR-I DDUGJY21,6,24.9100576,92.6016071,25.0,0.99,1
282,133,2210,BIHARA PT V DDUGJY21,9,24.9272683,92.6314067,63.0,2.0,1
283,133,2214,NIZ FULBARI PT I DDUGJY21,7,24.86611,92.618435,25.0,4.140000000000001,1
284,133,2223,SARASAPUR 1 DDUGJY21,2,24.9809245,92.5015992,25.0,0.49,1
285,133,2246,DUDPUR LAMARGAM,7,24.8758644,92.6528798,25.0,16.96,1
286,133,2255,BOROITOLI NEAR DIGABOR TE,2,24.9444695,92.5571892,16.0,1.0,1
